{
"type": "FeatureCollection",
"name": "s2",
"crs": { "type": "name", "properties": { "name": "urn:ogc:def:crs:OGC:1.3:CRS84" } },
"features": [
{ "type": "Feature", "properties": { "stop_code": 10118, "stop_id": "43", "stop_name": "Station Angrignon", "stop_url": "http://www.stm.info/fr/infos/reseaux/metro/angrignon", "wheelchair": 1, "route_id": "1", "loc_type": 0, "shelter": null, "service_id": "24J" }, "geometry": { "type": "Point", "coordinates": [ -73.603118, 45.446465999995134 ] } },
{ "type": "Feature", "properties": { "stop_code": 10120, "stop_id": "42", "stop_name": "Station Monk", "stop_url": "http://www.stm.info/fr/infos/reseaux/metro/monk", "wheelchair": 2, "route_id": "1", "loc_type": 0, "shelter": null, "service_id": "24J" }, "geometry": { "type": "Point", "coordinates": [ -73.593242, 45.451157999995146 ] } },
{ "type": "Feature", "properties": { "stop_code": 10122, "stop_id": "41", "stop_name": "Station Jolicoeur", "stop_url": "http://www.stm.info/fr/infos/reseaux/metro/jolicoeur", "wheelchair": 1, "route_id": "1", "loc_type": 0, "shelter": null, "service_id": "24J" }, "geometry": { "type": "Point", "coordinates": [ -73.581691, 45.457009999995137 ] } },
{ "type": "Feature", "properties": { "stop_code": 10124, "stop_id": "40", "stop_name": "Station Verdun", "stop_url": "http://www.stm.info/fr/infos/reseaux/metro/verdun", "wheelchair": 2, "route_id": "1", "loc_type": 0, "shelter": null, "service_id": "24J" }, "geometry": { "type": "Point", "coordinates": [ -73.572021, 45.459440999995124 ] } },
{ "type": "Feature", "properties": { "stop_code": 10126, "stop_id": "39", "stop_name": "Station De l'Église", "stop_url": "http://www.stm.info/fr/infos/reseaux/metro/de-l-eglise", "wheelchair": 2, "route_id": "1", "loc_type": 0, "shelter": null, "service_id": "24J" }, "geometry": { "type": "Point", "coordinates": [ -73.567074, 45.461893999995134 ] } },
{ "type": "Feature", "properties": { "stop_code": 10128, "stop_id": "38", "stop_name": "Station LaSalle", "stop_url": "http://www.stm.info/fr/infos/reseaux/metro/lasalle", "wheelchair": 2, "route_id": "1", "loc_type": 0, "shelter": null, "service_id": "24J" }, "geometry": { "type": "Point", "coordinates": [ -73.566267, 45.471062999995119 ] } },
{ "type": "Feature", "properties": { "stop_code": 10130, "stop_id": "37", "stop_name": "Station Charlevoix", "stop_url": "http://www.stm.info/fr/infos/reseaux/metro/charlevoix", "wheelchair": 2, "route_id": "1", "loc_type": 0, "shelter": null, "service_id": "24J" }, "geometry": { "type": "Point", "coordinates": [ -73.569336, 45.478464999995126 ] } },
{ "type": "Feature", "properties": { "stop_code": 10132, "stop_id": "36", "stop_name": "Station Lionel-Groulx", "stop_url": "http://www.stm.info/fr/infos/reseaux/metro/lionel-groulx", "wheelchair": 1, "route_id": "1,2", "loc_type": 0, "shelter": null, "service_id": "24J" }, "geometry": { "type": "Point", "coordinates": [ -73.58018, 45.482508999995133 ] } },
{ "type": "Feature", "properties": { "stop_code": 10134, "stop_id": "35", "stop_name": "Station Atwater", "stop_url": "http://www.stm.info/fr/infos/reseaux/metro/atwater", "wheelchair": 2, "route_id": "1", "loc_type": 0, "shelter": null, "service_id": "24J" }, "geometry": { "type": "Point", "coordinates": [ -73.585812, 45.490067999995134 ] } },
{ "type": "Feature", "properties": { "stop_code": 10136, "stop_id": "34", "stop_name": "Station Guy-Concordia", "stop_url": "http://www.stm.info/fr/infos/reseaux/metro/guy-concordia", "wheelchair": 2, "route_id": "1", "loc_type": 0, "shelter": null, "service_id": "24J" }, "geometry": { "type": "Point", "coordinates": [ -73.57931, 45.495569999995134 ] } },
{ "type": "Feature", "properties": { "stop_code": 10138, "stop_id": "33", "stop_name": "Station Peel", "stop_url": "http://www.stm.info/fr/infos/reseaux/metro/peel", "wheelchair": 2, "route_id": "1", "loc_type": 0, "shelter": null, "service_id": "24J" }, "geometry": { "type": "Point", "coordinates": [ -73.574715, 45.500878999995116 ] } },
{ "type": "Feature", "properties": { "stop_code": 10140, "stop_id": "32", "stop_name": "Station McGill", "stop_url": "http://www.stm.info/fr/infos/reseaux/metro/mcgill", "wheelchair": 1, "route_id": "1", "loc_type": 0, "shelter": null, "service_id": "24J" }, "geometry": { "type": "Point", "coordinates": [ -73.571586, 45.504063999995132 ] } },
{ "type": "Feature", "properties": { "stop_code": 10142, "stop_id": "31", "stop_name": "Station Place-des-Arts", "stop_url": "http://www.stm.info/fr/infos/reseaux/metro/place-des-arts", "wheelchair": 1, "route_id": "1", "loc_type": 0, "shelter": null, "service_id": "24J" }, "geometry": { "type": "Point", "coordinates": [ -73.568433, 45.508219999995141 ] } },
{ "type": "Feature", "properties": { "stop_code": 10144, "stop_id": "30", "stop_name": "Station Saint-Laurent", "stop_url": "http://www.stm.info/fr/infos/reseaux/metro/saint-laurent", "wheelchair": 2, "route_id": "1", "loc_type": 0, "shelter": null, "service_id": "24J" }, "geometry": { "type": "Point", "coordinates": [ -73.564899, 45.511032999995123 ] } },
{ "type": "Feature", "properties": { "stop_code": 10146, "stop_id": "9999111", "stop_name": "Station Berri-UQAM 1", "stop_url": "http://www.stm.info/fr/infos/reseaux/metro/berri-uqam", "wheelchair": 1, "route_id": "1", "loc_type": 0, "shelter": null, "service_id": "24J" }, "geometry": { "type": "Point", "coordinates": [ -73.561082, 45.515225999995117 ] } },
{ "type": "Feature", "properties": { "stop_code": 10146, "stop_id": "9999112", "stop_name": "Station Berri-UQAM 2", "stop_url": "http://www.stm.info/fr/infos/reseaux/metro/berri-uqam", "wheelchair": 1, "route_id": "2", "loc_type": 0, "shelter": null, "service_id": "24J" }, "geometry": { "type": "Point", "coordinates": [ -73.561051, 45.515211999995152 ] } },
{ "type": "Feature", "properties": { "stop_code": 10146, "stop_id": "9999114", "stop_name": "Station Berri-UQAM 4", "stop_url": "http://www.stm.info/fr/infos/reseaux/metro/berri-uqam", "wheelchair": 2, "route_id": "4", "loc_type": 0, "shelter": null, "service_id": "24J" }, "geometry": { "type": "Point", "coordinates": [ -73.561013, 45.515190999995134 ] } },
{ "type": "Feature", "properties": { "stop_code": 10148, "stop_id": "29", "stop_name": "Station Beaudry", "stop_url": "http://www.stm.info/fr/infos/reseaux/metro/beaudry", "wheelchair": 2, "route_id": "1", "loc_type": 0, "shelter": null, "service_id": "24J" }, "geometry": { "type": "Point", "coordinates": [ -73.555837, 45.518830999995131 ] } },
{ "type": "Feature", "properties": { "stop_code": 10150, "stop_id": "28", "stop_name": "Station Papineau", "stop_url": "http://www.stm.info/fr/infos/reseaux/metro/papineau", "wheelchair": 2, "route_id": "1", "loc_type": 0, "shelter": null, "service_id": "24J" }, "geometry": { "type": "Point", "coordinates": [ -73.552703, 45.523987999995128 ] } },
{ "type": "Feature", "properties": { "stop_code": 10152, "stop_id": "27", "stop_name": "Station Frontenac", "stop_url": "http://www.stm.info/fr/infos/reseaux/metro/frontenac", "wheelchair": 2, "route_id": "1", "loc_type": 0, "shelter": null, "service_id": "24J" }, "geometry": { "type": "Point", "coordinates": [ -73.552196, 45.533503999995141 ] } },
{ "type": "Feature", "properties": { "stop_code": 10154, "stop_id": "26", "stop_name": "Station Préfontaine", "stop_url": "http://www.stm.info/fr/infos/reseaux/metro/prefontaine", "wheelchair": 1, "route_id": "1", "loc_type": 0, "shelter": null, "service_id": "24J" }, "geometry": { "type": "Point", "coordinates": [ -73.554192, 45.541716999995131 ] } },
{ "type": "Feature", "properties": { "stop_code": 10156, "stop_id": "25", "stop_name": "Station Joliette", "stop_url": "http://www.stm.info/fr/infos/reseaux/metro/joliette", "wheelchair": 2, "route_id": "1", "loc_type": 0, "shelter": null, "service_id": "24J" }, "geometry": { "type": "Point", "coordinates": [ -73.551391, 45.546831999995121 ] } },
{ "type": "Feature", "properties": { "stop_code": 10158, "stop_id": "24", "stop_name": "Station Pie-IX", "stop_url": "http://www.stm.info/fr/infos/reseaux/metro/pie-ix", "wheelchair": 1, "route_id": "1", "loc_type": 0, "shelter": null, "service_id": "24J" }, "geometry": { "type": "Point", "coordinates": [ -73.551757, 45.553687999995127 ] } },
{ "type": "Feature", "properties": { "stop_code": 10160, "stop_id": "23", "stop_name": "Station Viau", "stop_url": "http://www.stm.info/fr/infos/reseaux/metro/viau", "wheelchair": 1, "route_id": "1", "loc_type": 0, "shelter": null, "service_id": "24J" }, "geometry": { "type": "Point", "coordinates": [ -73.54753, 45.560686999995134 ] } },
{ "type": "Feature", "properties": { "stop_code": 10162, "stop_id": "22", "stop_name": "Station Assomption", "stop_url": "http://www.stm.info/fr/infos/reseaux/metro/assomption", "wheelchair": 2, "route_id": "1", "loc_type": 0, "shelter": null, "service_id": "24J" }, "geometry": { "type": "Point", "coordinates": [ -73.547336, 45.569284999995148 ] } },
{ "type": "Feature", "properties": { "stop_code": 10164, "stop_id": "21", "stop_name": "Station Cadillac", "stop_url": "http://www.stm.info/fr/infos/reseaux/metro/cadillac", "wheelchair": 2, "route_id": "1", "loc_type": 0, "shelter": null, "service_id": "24J" }, "geometry": { "type": "Point", "coordinates": [ -73.54671, 45.576842999995137 ] } },
{ "type": "Feature", "properties": { "stop_code": 10166, "stop_id": "20", "stop_name": "Station Langelier", "stop_url": "http://www.stm.info/fr/infos/reseaux/metro/langelier", "wheelchair": 2, "route_id": "1", "loc_type": 0, "shelter": null, "service_id": "24J" }, "geometry": { "type": "Point", "coordinates": [ -73.543133, 45.58273599999513 ] } },
{ "type": "Feature", "properties": { "stop_code": 10168, "stop_id": "19", "stop_name": "Station Radisson", "stop_url": "http://www.stm.info/fr/infos/reseaux/metro/radisson", "wheelchair": 2, "route_id": "1", "loc_type": 0, "shelter": null, "service_id": "24J" }, "geometry": { "type": "Point", "coordinates": [ -73.539269, 45.589430999995145 ] } },
{ "type": "Feature", "properties": { "stop_code": 10170, "stop_id": "18", "stop_name": "Station Honoré-Beaugrand", "stop_url": "http://www.stm.info/fr/infos/reseaux/metro/honore-beaugrand", "wheelchair": 1, "route_id": "1", "loc_type": 0, "shelter": null, "service_id": "24J" }, "geometry": { "type": "Point", "coordinates": [ -73.535376, 45.59657199999512 ] } },
{ "type": "Feature", "properties": { "stop_code": 10222, "stop_id": "65", "stop_name": "Station Côte-Vertu", "stop_url": "http://www.stm.info/fr/infos/reseaux/metro/cote-vertu", "wheelchair": 1, "route_id": "2", "loc_type": 0, "shelter": null, "service_id": "24J" }, "geometry": { "type": "Point", "coordinates": [ -73.682757, 45.514236999995141 ] } },
{ "type": "Feature", "properties": { "stop_code": 10224, "stop_id": "54", "stop_name": "Station Du Collège", "stop_url": "http://www.stm.info/fr/infos/reseaux/metro/du-college", "wheelchair": 1, "route_id": "2", "loc_type": 0, "shelter": null, "service_id": "24J" }, "geometry": { "type": "Point", "coordinates": [ -73.674796, 45.509257999995128 ] } },
{ "type": "Feature", "properties": { "stop_code": 10228, "stop_id": "53", "stop_name": "Station De la Savane", "stop_url": "http://www.stm.info/fr/infos/reseaux/metro/de-la-savane", "wheelchair": 2, "route_id": "2", "loc_type": 0, "shelter": null, "service_id": "24J" }, "geometry": { "type": "Point", "coordinates": [ -73.661538, 45.500050999995111 ] } },
{ "type": "Feature", "properties": { "stop_code": 10230, "stop_id": "52", "stop_name": "Station Namur", "stop_url": "http://www.stm.info/fr/infos/reseaux/metro/namur", "wheelchair": 2, "route_id": "2", "loc_type": 0, "shelter": null, "service_id": "24J" }, "geometry": { "type": "Point", "coordinates": [ -73.652828, 45.494642999995122 ] } },
{ "type": "Feature", "properties": { "stop_code": 10232, "stop_id": "51", "stop_name": "Station Plamondon", "stop_url": "http://www.stm.info/fr/infos/reseaux/metro/plamondon", "wheelchair": 2, "route_id": "2", "loc_type": 0, "shelter": null, "service_id": "24J" }, "geometry": { "type": "Point", "coordinates": [ -73.63826, 45.494643999995127 ] } },
{ "type": "Feature", "properties": { "stop_code": 10234, "stop_id": "50", "stop_name": "Station Côte-Sainte-Catherine", "stop_url": "http://www.stm.info/fr/infos/reseaux/metro/cote-sainte-catherine", "wheelchair": 2, "route_id": "2", "loc_type": 0, "shelter": null, "service_id": "24J" }, "geometry": { "type": "Point", "coordinates": [ -73.6331, 45.492355999995119 ] } },
{ "type": "Feature", "properties": { "stop_code": 10236, "stop_id": "9999492", "stop_name": "Station Snowdon 2", "stop_url": "http://www.stm.info/fr/infos/reseaux/metro/snowdon", "wheelchair": 1, "route_id": "2", "loc_type": 0, "shelter": null, "service_id": "24J" }, "geometry": { "type": "Point", "coordinates": [ -73.62773, 45.485432999995126 ] } },
{ "type": "Feature", "properties": { "stop_code": 10236, "stop_id": "9999495", "stop_name": "Station Snowdon 5", "stop_url": "http://www.stm.info/fr/infos/reseaux/metro/snowdon", "wheelchair": 1, "route_id": "5", "loc_type": 0, "shelter": null, "service_id": "24J" }, "geometry": { "type": "Point", "coordinates": [ -73.627757, 45.485402999995109 ] } },
{ "type": "Feature", "properties": { "stop_code": 10238, "stop_id": "48", "stop_name": "Station Villa-Maria", "stop_url": "http://www.stm.info/fr/infos/reseaux/metro/villa-maria", "wheelchair": 1, "route_id": "2", "loc_type": 0, "shelter": null, "service_id": "24J" }, "geometry": { "type": "Point", "coordinates": [ -73.619821, 45.47970899999514 ] } },
{ "type": "Feature", "properties": { "stop_code": 10242, "stop_id": "47", "stop_name": "Station Vendôme", "stop_url": "http://www.stm.info/fr/infos/reseaux/metro/vendome", "wheelchair": 1, "route_id": "2", "loc_type": 0, "shelter": null, "service_id": "24J" }, "geometry": { "type": "Point", "coordinates": [ -73.603706, 45.47410099999513 ] } },
{ "type": "Feature", "properties": { "stop_code": 10244, "stop_id": "46", "stop_name": "Station Place-Saint-Henri", "stop_url": "http://www.stm.info/fr/infos/reseaux/metro/place-saint-henri", "wheelchair": 2, "route_id": "2", "loc_type": 0, "shelter": null, "service_id": "24J" }, "geometry": { "type": "Point", "coordinates": [ -73.586629, 45.477319999995139 ] } },
{ "type": "Feature", "properties": { "stop_code": 10248, "stop_id": "17", "stop_name": "Station Georges-Vanier", "stop_url": "http://www.stm.info/fr/infos/reseaux/metro/georges-vanier", "wheelchair": 2, "route_id": "2", "loc_type": 0, "shelter": null, "service_id": "24J" }, "geometry": { "type": "Point", "coordinates": [ -73.576852, 45.488896999995134 ] } },
{ "type": "Feature", "properties": { "stop_code": 10250, "stop_id": "16", "stop_name": "Station Lucien-L'Allier", "stop_url": "http://www.stm.info/fr/infos/reseaux/metro/lucien-l-allier", "wheelchair": 2, "route_id": "2", "loc_type": 0, "shelter": null, "service_id": "24J" }, "geometry": { "type": "Point", "coordinates": [ -73.571074, 45.494744999995113 ] } },
{ "type": "Feature", "properties": { "stop_code": 10252, "stop_id": "15", "stop_name": "Station Bonaventure", "stop_url": "http://www.stm.info/fr/infos/reseaux/metro/bonaventure", "wheelchair": 1, "route_id": "2", "loc_type": 0, "shelter": null, "service_id": "24J" }, "geometry": { "type": "Point", "coordinates": [ -73.567235, 45.498085999995119 ] } },
{ "type": "Feature", "properties": { "stop_code": 10254, "stop_id": "14", "stop_name": "Station Square-Victoria–OACI", "stop_url": "http://www.stm.info/fr/infos/reseaux/metro/square-victoria-oaci", "wheelchair": 2, "route_id": "2", "loc_type": 0, "shelter": null, "service_id": "24J" }, "geometry": { "type": "Point", "coordinates": [ -73.563118, 45.501936999995138 ] } },
{ "type": "Feature", "properties": { "stop_code": 10256, "stop_id": "13", "stop_name": "Station Place-d'Armes", "stop_url": "http://www.stm.info/fr/infos/reseaux/metro/place-d-armes", "wheelchair": 1, "route_id": "2", "loc_type": 0, "shelter": null, "service_id": "24J" }, "geometry": { "type": "Point", "coordinates": [ -73.559548, 45.506347999995121 ] } },
{ "type": "Feature", "properties": { "stop_code": 10258, "stop_id": "12", "stop_name": "Station Champ-de-Mars", "stop_url": "http://www.stm.info/fr/infos/reseaux/metro/champ-de-mars", "wheelchair": 1, "route_id": "2", "loc_type": 0, "shelter": null, "service_id": "24J" }, "geometry": { "type": "Point", "coordinates": [ -73.556596, 45.510046999995133 ] } },
{ "type": "Feature", "properties": { "stop_code": 10262, "stop_id": "10", "stop_name": "Station Sherbrooke", "stop_url": "http://www.stm.info/fr/infos/reseaux/metro/sherbrooke", "wheelchair": 2, "route_id": "2", "loc_type": 0, "shelter": null, "service_id": "24J" }, "geometry": { "type": "Point", "coordinates": [ -73.569217, 45.519059999995122 ] } },
{ "type": "Feature", "properties": { "stop_code": 10264, "stop_id": "9", "stop_name": "Station Mont-Royal", "stop_url": "http://www.stm.info/fr/infos/reseaux/metro/mont-royal", "wheelchair": 1, "route_id": "2", "loc_type": 0, "shelter": null, "service_id": "24J" }, "geometry": { "type": "Point", "coordinates": [ -73.581959, 45.524930999995149 ] } },
{ "type": "Feature", "properties": { "stop_code": 10266, "stop_id": "8", "stop_name": "Station Laurier", "stop_url": "http://www.stm.info/fr/infos/reseaux/metro/laurier", "wheelchair": 2, "route_id": "2", "loc_type": 0, "shelter": null, "service_id": "24J" }, "geometry": { "type": "Point", "coordinates": [ -73.586907, 45.527398999995128 ] } },
{ "type": "Feature", "properties": { "stop_code": 10268, "stop_id": "7", "stop_name": "Station Rosemont", "stop_url": "http://www.stm.info/fr/infos/reseaux/metro/rosemont", "wheelchair": 1, "route_id": "2", "loc_type": 0, "shelter": null, "service_id": "24J" }, "geometry": { "type": "Point", "coordinates": [ -73.59778, 45.53173299999515 ] } },
{ "type": "Feature", "properties": { "stop_code": 10270, "stop_id": "6", "stop_name": "Station Beaubien", "stop_url": "http://www.stm.info/fr/infos/reseaux/metro/beaubien", "wheelchair": 2, "route_id": "2", "loc_type": 0, "shelter": null, "service_id": "24J" }, "geometry": { "type": "Point", "coordinates": [ -73.604688, 45.535353999995124 ] } },
{ "type": "Feature", "properties": { "stop_code": 10272, "stop_id": "9999052", "stop_name": "Station Jean-Talon 2", "stop_url": "http://www.stm.info/fr/infos/reseaux/metro/jean-talon", "wheelchair": 1, "route_id": "2", "loc_type": 0, "shelter": null, "service_id": "24J" }, "geometry": { "type": "Point", "coordinates": [ -73.613902, 45.539055999995135 ] } },
{ "type": "Feature", "properties": { "stop_code": 10272, "stop_id": "9999055", "stop_name": "Station Jean-Talon 5", "stop_url": "http://www.stm.info/fr/infos/reseaux/metro/jean-talon", "wheelchair": 1, "route_id": "5", "loc_type": 0, "shelter": null, "service_id": "24J" }, "geometry": { "type": "Point", "coordinates": [ -73.613856, 45.539151999995134 ] } },
{ "type": "Feature", "properties": { "stop_code": 10274, "stop_id": "4", "stop_name": "Station Jarry", "stop_url": "http://www.stm.info/fr/infos/reseaux/metro/jarry", "wheelchair": 2, "route_id": "2", "loc_type": 0, "shelter": null, "service_id": "24J" }, "geometry": { "type": "Point", "coordinates": [ -73.628765, 45.54319099999514 ] } },
{ "type": "Feature", "properties": { "stop_code": 10276, "stop_id": "3", "stop_name": "Station Crémazie", "stop_url": "http://www.stm.info/fr/infos/reseaux/metro/cremazie", "wheelchair": 2, "route_id": "2", "loc_type": 0, "shelter": null, "service_id": "24J" }, "geometry": { "type": "Point", "coordinates": [ -73.639052, 45.546081999995131 ] } },
{ "type": "Feature", "properties": { "stop_code": 10278, "stop_id": "2", "stop_name": "Station Sauvé", "stop_url": "http://www.stm.info/fr/infos/reseaux/metro/sauve", "wheelchair": 2, "route_id": "2", "loc_type": 0, "shelter": null, "service_id": "24J" }, "geometry": { "type": "Point", "coordinates": [ -73.656017, 45.550756999995137 ] } },
{ "type": "Feature", "properties": { "stop_code": 10280, "stop_id": "1", "stop_name": "Station Henri-Bourassa", "stop_url": "http://www.stm.info/fr/infos/reseaux/metro/henri-bourassa", "wheelchair": 1, "route_id": "2", "loc_type": 0, "shelter": null, "service_id": "24J" }, "geometry": { "type": "Point", "coordinates": [ -73.668172, 45.555276999995122 ] } },
{ "type": "Feature", "properties": { "stop_code": 10282, "stop_id": "66", "stop_name": "Station Cartier (zone B)", "stop_url": "http://www.stm.info/fr/infos/reseaux/metro/cartier", "wheelchair": 1, "route_id": "2", "loc_type": 0, "shelter": null, "service_id": "24J" }, "geometry": { "type": "Point", "coordinates": [ -73.68231, 45.559996999995121 ] } },
{ "type": "Feature", "properties": { "stop_code": 10286, "stop_id": "67", "stop_name": "Station De la Concorde (zone B)", "stop_url": "http://www.stm.info/fr/infos/reseaux/metro/de-la-concorde", "wheelchair": 1, "route_id": "2", "loc_type": 0, "shelter": null, "service_id": "24J" }, "geometry": { "type": "Point", "coordinates": [ -73.709389, 45.560697999995114 ] } },
{ "type": "Feature", "properties": { "stop_code": 10288, "stop_id": "68", "stop_name": "Station Montmorency (zone B)", "stop_url": "http://www.stm.info/fr/infos/reseaux/metro/montmorency", "wheelchair": 1, "route_id": "2", "loc_type": 0, "shelter": null, "service_id": "24J" }, "geometry": { "type": "Point", "coordinates": [ -73.722459, 45.558435999995133 ] } },
{ "type": "Feature", "properties": { "stop_code": 10452, "stop_id": "45", "stop_name": "Station Jean-Drapeau", "stop_url": "http://www.stm.info/fr/infos/reseaux/metro/jean-drapeau", "wheelchair": 2, "route_id": "4", "loc_type": 0, "shelter": null, "service_id": "24J" }, "geometry": { "type": "Point", "coordinates": [ -73.533127, 45.512428999995123 ] } },
{ "type": "Feature", "properties": { "stop_code": 10454, "stop_id": "44", "stop_name": "Station Longueuil-Université de Sherbrooke (zone B", "stop_url": "http://www.stm.info/fr/infos/reseaux/metro/longueuil-universite-de-sherbrooke", "wheelchair": 2, "route_id": "4", "loc_type": 0, "shelter": null, "service_id": "24J" }, "geometry": { "type": "Point", "coordinates": [ -73.522098, 45.524889999995125 ] } },
{ "type": "Feature", "properties": { "stop_code": 10534, "stop_id": "55", "stop_name": "Station Côte-des-Neiges", "stop_url": "http://www.stm.info/fr/infos/reseaux/metro/cote-des-neiges", "wheelchair": 2, "route_id": "5", "loc_type": 0, "shelter": null, "service_id": "24J" }, "geometry": { "type": "Point", "coordinates": [ -73.623386, 45.496845999995116 ] } },
{ "type": "Feature", "properties": { "stop_code": 10536, "stop_id": "56", "stop_name": "Station Université-de-Montréal", "stop_url": "http://www.stm.info/fr/infos/reseaux/metro/universite-de-montreal", "wheelchair": 2, "route_id": "5", "loc_type": 0, "shelter": null, "service_id": "24J" }, "geometry": { "type": "Point", "coordinates": [ -73.617699, 45.503187999995134 ] } },
{ "type": "Feature", "properties": { "stop_code": 10538, "stop_id": "57", "stop_name": "Station Édouard-Montpetit", "stop_url": "http://www.stm.info/fr/infos/reseaux/metro/edouard-montpetit", "wheelchair": 2, "route_id": "5", "loc_type": 0, "shelter": null, "service_id": "24J" }, "geometry": { "type": "Point", "coordinates": [ -73.612858, 45.509919999995134 ] } },
{ "type": "Feature", "properties": { "stop_code": 10540, "stop_id": "58", "stop_name": "Station Outremont", "stop_url": "http://www.stm.info/fr/infos/reseaux/metro/outremont", "wheelchair": 2, "route_id": "5", "loc_type": 0, "shelter": null, "service_id": "24J" }, "geometry": { "type": "Point", "coordinates": [ -73.614976, 45.520369999995147 ] } },
{ "type": "Feature", "properties": { "stop_code": 10542, "stop_id": "59", "stop_name": "Station Acadie", "stop_url": "http://www.stm.info/fr/infos/reseaux/metro/acadie", "wheelchair": 2, "route_id": "5", "loc_type": 0, "shelter": null, "service_id": "24J" }, "geometry": { "type": "Point", "coordinates": [ -73.623257, 45.523457999995117 ] } },
{ "type": "Feature", "properties": { "stop_code": 10544, "stop_id": "60", "stop_name": "Station Parc", "stop_url": "http://www.stm.info/fr/infos/reseaux/metro/parc", "wheelchair": 2, "route_id": "5", "loc_type": 0, "shelter": null, "service_id": "24J" }, "geometry": { "type": "Point", "coordinates": [ -73.624559, 45.53017699999512 ] } },
{ "type": "Feature", "properties": { "stop_code": 10546, "stop_id": "61", "stop_name": "Station De Castelnau", "stop_url": "http://www.stm.info/fr/infos/reseaux/metro/de-castelnau", "wheelchair": 2, "route_id": "5", "loc_type": 0, "shelter": null, "service_id": "24J" }, "geometry": { "type": "Point", "coordinates": [ -73.619873, 45.535436999995127 ] } },
{ "type": "Feature", "properties": { "stop_code": 10552, "stop_id": "62", "stop_name": "Station Fabre", "stop_url": "http://www.stm.info/fr/infos/reseaux/metro/fabre", "wheelchair": 2, "route_id": "5", "loc_type": 0, "shelter": null, "service_id": "24J" }, "geometry": { "type": "Point", "coordinates": [ -73.608106, 45.546752999995121 ] } },
{ "type": "Feature", "properties": { "stop_code": 10554, "stop_id": "63", "stop_name": "Station D'Iberville", "stop_url": "http://www.stm.info/fr/infos/reseaux/metro/d-iberville", "wheelchair": 2, "route_id": "5", "loc_type": 0, "shelter": null, "service_id": "24J" }, "geometry": { "type": "Point", "coordinates": [ -73.601988, 45.55361799999514 ] } },
{ "type": "Feature", "properties": { "stop_code": 10556, "stop_id": "64", "stop_name": "Station Saint-Michel", "stop_url": "http://www.stm.info/fr/infos/reseaux/metro/saint-michel", "wheelchair": 2, "route_id": "5", "loc_type": 0, "shelter": null, "service_id": "24J" }, "geometry": { "type": "Point", "coordinates": [ -73.600002, 45.55955999999513 ] } }
]
}
